{
"type": "FeatureCollection",
"name": "station3",
"features": [
{ "type": "Feature","id":"1","properties": { "name": "华侨城", "lat": 113.985369, "lon": 22.533489 }, "geometry": { "type": "Point", "coordinates": [ 113.985369, 22.533489 ] } },
{ "type": "Feature","id":"2","properties": { "name": "世界之窗", "lat": 113.974216, "lon": 22.5369 }, "geometry": { "type": "Point", "coordinates": [ 113.974216, 22.5369 ] } },
{ "type": "Feature","id":"3","properties": { "name": "白石洲", "lat": 113.967048, "lon": 22.539604 }, "geometry": { "type": "Point", "coordinates": [ 113.967048, 22.539604 ] } },
{ "type": "Feature","id":"4","properties": { "name": "高新园", "lat": 113.953842, "lon": 22.540236 }, "geometry": { "type": "Point", "coordinates": [ 113.953842, 22.540236 ] } },
{ "type": "Feature","id":"5","properties": { "name": "深大", "lat": 113.944173, "lon": 22.538667 }, "geometry": { "type": "Point", "coordinates": [ 113.944173, 22.538667 ] } },
{ "type": "Feature","id":"6","properties": { "name": "桃园", "lat": 113.924857, "lon": 22.532357 }, "geometry": { "type": "Point", "coordinates": [ 113.923414200000025, 22.5355887 ] } },
{ "type": "Feature","id":"7","properties": { "name": "大新", "lat": 113.915072, "lon": 22.532232 }, "geometry": { "type": "Point", "coordinates": [ 113.915072, 22.532232 ] } },
{ "type": "Feature","id":"8","properties": { "name": "鲤鱼门", "lat": 113.903079, "lon": 22.532005 }, "geometry": { "type": "Point", "coordinates": [ 113.903079, 22.532005 ] } },
{ "type": "Feature","id":"9","properties": { "name": "前海湾", "lat": 113.897932, "lon": 22.537121 }, "geometry": { "type": "Point", "coordinates": [ 113.897932, 22.537121 ] } },
{ "type": "Feature","id":"10","properties": { "name": "赤湾", "lat": 113.897525, "lon": 22.479227 }, "geometry": { "type": "Point", "coordinates": [ 113.897525, 22.479227 ] } },
{ "type": "Feature","id":"11","properties": { "name": "蛇口港", "lat": 113.912331, "lon": 22.476626 }, "geometry": { "type": "Point", "coordinates": [ 113.912331, 22.476626 ] } },
{ "type": "Feature","id":"12","properties": { "name": "海上世界", "lat": 113.915111, "lon": 22.485101 }, "geometry": { "type": "Point", "coordinates": [ 113.915111, 22.485101 ] } },
{ "type": "Feature","id":"13","properties": { "name": "水湾", "lat": 113.919686, "lon": 22.488389 }, "geometry": { "type": "Point", "coordinates": [ 113.919686, 22.488389 ] } },
{ "type": "Feature","id":"14","properties": { "name": "东角头", "lat": 113.931149, "lon": 22.486325 }, "geometry": { "type": "Point", "coordinates": [ 113.931149, 22.486325 ] } },
{ "type": "Feature","id":"15","properties": { "name": "湾厦", "lat": 113.938604, "lon": 22.493353 }, "geometry": { "type": "Point", "coordinates": [ 113.938604, 22.493353 ] } },
{ "type": "Feature","id":"16","properties": { "name": "海月", "lat": 113.937715, "lon": 22.500409 }, "geometry": { "type": "Point", "coordinates": [ 113.937715, 22.500409 ] } },
{ "type": "Feature","id":"17","properties": { "name": "登良", "lat": 113.937602, "lon": 22.509146 }, "geometry": { "type": "Point", "coordinates": [ 113.937602, 22.509146 ] } },
{ "type": "Feature","id":"18","properties": { "name": "后海", "lat": 113.942498, "lon": 22.518422 }, "geometry": { "type": "Point", "coordinates": [ 113.942498, 22.518422 ] } },
{ "type": "Feature","id":"19","properties": { "name": "科苑", "lat": 113.946195, "lon": 22.527019 }, "geometry": { "type": "Point", "coordinates": [ 113.946195, 22.527019 ] } },
{ "type": "Feature","id":"20","properties": { "name": "红树湾", "lat": 113.968432, "lon": 22.525142 }, "geometry": { "type": "Point", "coordinates": [ 113.968432, 22.525142 ] } },
{ "type": "Feature","id":"21","properties": { "name": "世界之窗", "lat": 113.974216, "lon": 22.5369 }, "geometry": { "type": "Point", "coordinates": [ 113.974216, 22.5369 ] } },
{ "type": "Feature","id":"22","properties": { "name": "侨城北", "lat": 113.989148, "lon": 22.543992 }, "geometry": { "type": "Point", "coordinates": [ 113.989148, 22.543992 ] } },
{ "type": "Feature","id":"23","properties": { "name": "赤湾", "lat": 113.897525, "lon": 22.479227 }, "geometry": { "type": "Point", "coordinates": [ 113.897525, 22.479227 ] } },
{ "type": "Feature","id":"24","properties": { "name": "荔湾", "lat": 113.893485, "lon": 22.497821 }, "geometry": { "type": "Point", "coordinates": [ 113.893485, 22.497821 ] } },
{ "type": "Feature","id":"25","properties": { "name": "铁路公园", "lat": 113.889969, "lon": 22.502908 }, "geometry": { "type": "Point", "coordinates": [ 113.889969, 22.502908 ] } },
{ "type": "Feature","id":"26","properties": { "name": "妈湾", "lat": 113.885929, "lon": 22.507904 }, "geometry": { "type": "Point", "coordinates": [ 113.885929, 22.507904 ] } },
{ "type": "Feature","id":"27","properties": { "name": "前湾公园", "lat": 113.889552, "lon": 22.516108 }, "geometry": { "type": "Point", "coordinates": [ 113.889552, 22.516108 ] } },
{ "type": "Feature","id":"28","properties": { "name": "前湾", "lat": 113.895809, "lon": 22.522332 }, "geometry": { "type": "Point", "coordinates": [ 113.895809, 22.522332 ] } },
{ "type": "Feature","id":"29","properties": { "name": "桂湾", "lat": 113.897944, "lon": 22.532358 }, "geometry": { "type": "Point", "coordinates": [ 113.897944, 22.532358 ] } },
{ "type": "Feature","id":"30","properties": { "name": "前海湾", "lat": 113.897932, "lon": 22.537121 }, "geometry": { "type": "Point", "coordinates": [ 113.897932, 22.537121 ] } },
{ "type": "Feature","id":"31","properties": { "name": "留仙洞", "lat": 113.943543, "lon": 22.580534 }, "geometry": { "type": "Point", "coordinates": [ 113.943543, 22.580534 ] } },
{ "type": "Feature","id":"32","properties": { "name": "西丽", "lat": 113.954396, "lon": 22.580677 }, "geometry": { "type": "Point", "coordinates": [ 113.954396, 22.580677 ] } },
{ "type": "Feature","id":"33","properties": { "name": "大学城", "lat": 113.965307, "lon": 22.581946 }, "geometry": { "type": "Point", "coordinates": [ 113.965307, 22.581946 ] } },
{ "type": "Feature","id":"34","properties": { "name": "塘朗", "lat": 113.999666, "lon": 22.590097 }, "geometry": { "type": "Point", "coordinates": [ 113.999666, 22.590097 ] } },
{ "type": "Feature","id":"35","properties": { "name": "长岭陂", "lat": 114.010275, "lon": 22.599395 }, "geometry": { "type": "Point", "coordinates": [ 114.010275, 22.599395 ] } },
{ "type": "Feature","id":"36","properties": { "name": "西丽湖", "lat": 113.965648, "lon": 22.593567 }, "geometry": { "type": "Point", "coordinates": [ 113.965648, 22.593567 ] } },
{ "type": "Feature","id":"37","properties": { "name": "西丽", "lat": 113.954396, "lon": 22.580677 }, "geometry": { "type": "Point", "coordinates": [ 113.954396, 22.580677 ] } },
{ "type": "Feature","id":"38","properties": { "name": "茶光", "lat": 113.954311, "lon": 22.574138 }, "geometry": { "type": "Point", "coordinates": [ 113.954311, 22.574138 ] } },
{ "type": "Feature","id":"39","properties": { "name": "珠光", "lat": 113.960559, "lon": 22.56827 }, "geometry": { "type": "Point", "coordinates": [ 113.960559, 22.56827 ] } },
{ "type": "Feature","id":"40","properties": { "name": "龙井", "lat": 113.974687, "lon": 22.56401 }, "geometry": { "type": "Point", "coordinates": [ 113.974687, 22.56401 ] } },
{ "type": "Feature","id":"41","properties": { "name": "桃源村", "lat": 113.981962, "lon": 22.5599 }, "geometry": { "type": "Point", "coordinates": [ 113.981962, 22.5599 ] } },
{ "type": "Feature","id":"42","properties": { "name": "深云", "lat": 113.993727, "lon": 22.556537 }, "geometry": { "type": "Point", "coordinates": [ 113.993727, 22.556537 ] } },
{ "type": "Feature","id":"43","properties": { "name": "前湾", "lat": 113.895809, "lon": 22.522332 }, "geometry": { "type": "Point", "coordinates": [ 113.895809, 22.522332 ] } },
{ "type": "Feature","id":"44","properties": { "name": "梦海", "lat": 113.898806, "lon": 22.518925 }, "geometry": { "type": "Point", "coordinates": [ 113.898806, 22.518925 ] } },
{ "type": "Feature","id":"45","properties": { "name": "怡海", "lat": 113.903758, "lon": 22.514933 }, "geometry": { "type": "Point", "coordinates": [ 113.903758, 22.514933 ] } },
{ "type": "Feature","id":"46","properties": { "name": "荔林", "lat": 113.913128, "lon": 22.511903 }, "geometry": { "type": "Point", "coordinates": [ 113.913128, 22.511903 ] } },
{ "type": "Feature","id":"47","properties": { "name": "南油西", "lat": 113.918402, "lon": 22.509074 }, "geometry": { "type": "Point", "coordinates": [ 113.918402, 22.509074 ] } },
{ "type": "Feature","id":"48","properties": { "name": "南油", "lat": 113.925664, "lon": 22.509981 }, "geometry": { "type": "Point", "coordinates": [ 113.925664, 22.509981 ] } },
{ "type": "Feature","id":"49","properties": { "name": "南山书城", "lat": 113.928657, "lon": 22.519355 }, "geometry": { "type": "Point", "coordinates": [ 113.928657, 22.519355 ] } },
{ "type": "Feature","id":"50","properties": { "name": "深大南", "lat": 113.935675, "lon": 22.526016 }, "geometry": { "type": "Point", "coordinates": [ 113.935675, 22.526016 ] } },
{ "type": "Feature","id":"51","properties": { "name": "粤海门", "lat": 113.945531, "lon": 22.532695 }, "geometry": { "type": "Point", "coordinates": [ 113.945531, 22.532695 ] } },
{ "type": "Feature","id":"52","properties": { "name": "高新南", "lat": 113.950079, "lon": 22.532797 }, "geometry": { "type": "Point", "coordinates": [ 113.950079, 22.532797 ] } },
{ "type": "Feature","id":"53","properties": { "name": "红树湾南", "lat": 113.971433, "lon": 22.523023 }, "geometry": { "type": "Point", "coordinates": [ 113.971433, 22.523023 ] } },
{ "type": "Feature","id":"54","properties": { "name": "深湾", "lat": 113.97862, "lon": 22.523078 }, "geometry": { "type": "Point", "coordinates": [ 113.97862, 22.523078 ] } },
{ "type": "Feature","id":"55","properties": { "name": "前海湾", "lat": 113.897932, "lon": 22.537121 }, "geometry": { "type": "Point", "coordinates": [ 113.897932, 22.537121 ] } },
{ "type": "Feature","id":"56","properties": { "name": "南山", "lat": 113.923596, "lon": 22.524022 }, "geometry": { "type": "Point", "coordinates": [ 113.923596, 22.524022 ] } },
{ "type": "Feature","id":"57","properties": { "name": "后海", "lat": 113.942498, "lon": 22.518422 }, "geometry": { "type": "Point", "coordinates": [ 113.942498, 22.518422 ] } },
{ "type": "Feature","id":"58","properties": { "name": "红树湾南", "lat": 113.971433, "lon": 22.523023 }, "geometry": { "type": "Point", "coordinates": [ 113.971433, 22.523023 ] } }
]
}
